%  GPST                      x-ecef(m)      y-ecef(m)      z-ecef(m)   Q  ns   sdx(m)   sdy(m)   sdz(m)  sdxy(m)  sdyz(m)  sdzx(m) age(s)  ratio
2016/04/14 14:43:57.000  -2451407.2501   5832844.7562   -803406.0151   5  14   2.0360   6.0165   1.6439  -1.5547  -1.5579   0.8079   0.00    0.0
2016/04/14 14:43:58.000  -2451407.2847   5832845.0494   -803405.9770   5  14   2.0360   6.0165   1.6438  -1.5547  -1.5576   0.8078   0.00    0.0
2016/04/14 14:43:59.000  -2451407.3220   5832845.3316   -803405.9995   5  14   2.0360   6.0164   1.6438  -1.5547  -1.5574   0.8077   0.00    0.0
2016/04/14 14:44:00.000  -2451407.3673   5832845.3791   -803405.8389   5  14   2.0360   6.0163   1.6437  -1.5547  -1.5571   0.8077   0.00    0.0
2016/04/14 14:44:01.000  -2451407.3744   5832845.0173   -803405.6815   5  14   2.0360   6.0163   1.6436  -1.5547  -1.5568   0.8076   0.00    0.0
2016/04/14 14:44:02.000  -2451407.3785   5832844.6438   -803405.6185   5  14   2.0360   6.0162   1.6435  -1.5547  -1.5565   0.8075   0.00    0.0
2016/04/14 14:44:03.000  -2451407.5271   5832844.7051   -803405.6961   5  14   2.0361   6.0161   1.6434  -1.5547  -1.5563   0.8074   0.00    0.0
2016/04/14 14:44:04.000  -2451407.7035   5832844.8678   -803405.5548   5  14   2.0361   6.0161   1.6434  -1.5547  -1.5560   0.8074   0.00    0.0
2016/04/14 14:44:05.000  -2451407.6111   5832844.4628   -803405.5190   5  14   2.0361   6.0160   1.6433  -1.5548  -1.5557   0.8073   0.00    0.0
2016/04/14 14:44:06.000  -2451407.7040   5832844.9269   -803405.5146   5  14   2.0361   6.0159   1.6432  -1.5548  -1.5554   0.8072   0.00    0.0
2016/04/14 14:44:07.000  -2451413.3088   5832888.2962   -803408.5275   5  14   2.6778   8.2947   1.8150  -4.0845  -2.8028   1.4240   0.00    0.0
2016/04/14 14:44:08.000  -2451405.3007   5832857.4441   -803405.0282   5  15   1.9513   4.9169   1.6413  -2.1054  -1.6371   0.7793   0.00    0.0
2016/04/14 14:44:09.000  -2451405.8812   5832854.4472   -803404.9846   5  15   1.9513   4.9168   1.6412  -2.1054  -1.6368   0.7792   0.00    0.0
2016/04/14 14:44:10.000  -2451406.3907   5832850.8309   -803404.9259   5  15   1.9514   4.9167   1.6412  -2.1054  -1.6366   0.7792   1.00    0.0
2016/04/14 14:44:11.000  -2451406.6913   5832848.2191   -803404.9991   5  15   1.9514   4.9166   1.6411  -2.1054  -1.6363   0.7791   0.00    0.0
2016/04/14 14:44:12.000  -2451406.9308   5832846.5394   -803404.8770   5  15   1.9514   4.9166   1.6410  -2.1054  -1.6360   0.7790   0.00    0.0
2016/04/14 14:44:13.000  -2451407.1761   5832843.6406   -803404.7860   5  15   1.9514   4.9165   1.6409  -2.1053  -1.6357   0.7790   0.00    0.0
2016/04/14 14:44:14.000  -2451406.7707   5832843.4823   -803404.8644   5  15   1.9514   4.9164   1.6409  -2.1053  -1.6354   0.7789   0.00    0.0
2016/04/14 14:44:15.000  -2451406.7768   5832843.1485   -803404.9307   5  15   1.9514   4.9163   1.6408  -2.1053  -1.6351   0.7788   0.00    0.0
2016/04/14 14:44:16.000  -2451406.6785   5832842.6518   -803404.9214   5  15   1.9514   4.9162   1.6407  -2.1053  -1.6348   0.7787   0.00    0.0
2016/04/14 14:44:17.000  -2451406.0690   5832844.0225   -803404.9431   5  15   1.9515   4.9161   1.6406  -2.1053  -1.6345   0.7787   0.00    0.0
2016/04/14 14:44:18.000  -2451405.2298   5832847.5294   -803404.8736   5  15   1.9515   4.9160   1.6406  -2.1053  -1.6342   0.7786   1.00    0.0
2016/04/14 14:44:19.000  -2451404.8241   5832848.4571   -803404.9127   5  15   1.9515   4.9159   1.6405  -2.1053  -1.6340   0.7785   0.00    0.0
2016/04/14 14:44:20.000  -2451404.7494   5832848.1405   -803405.0529   5  15   1.9515   4.9158   1.6404  -2.1053  -1.6337   0.7785   0.00    0.0
2016/04/14 14:44:21.000  -2451404.3743   5832849.0045   -803405.2484   5  15   1.9515   4.9158   1.6403  -2.1053  -1.6334   0.7784   0.00    0.0
2016/04/14 14:44:22.000  -2451403.8662   5832850.3342   -803405.3810   5  15   1.9515   4.9157   1.6403  -2.1053  -1.6331   0.7783   0.00    0.0
2016/04/14 14:44:23.000  -2451403.7805   5832850.7135   -803405.4769   5  15   1.9515   4.9156   1.6402  -2.1053  -1.6328   0.7783   0.00    0.0
2016/04/14 14:44:24.000  -2451403.4631   5832851.9511   -803405.6994   5  15   1.9516   4.9155   1.6401  -2.1053  -1.6325   0.7782   0.00    0.0
2016/04/14 14:44:25.000  -2451402.9006   5832855.2809   -803405.7718   5  15   1.9516   4.9154   1.6400  -2.1053  -1.6322   0.7781   0.00    0.0
2016/04/14 14:44:26.000  -2451404.9050   5832841.2765   -803406.3168   5  14   2.0363   6.0145   1.6417  -1.5550  -1.5499   0.8057   0.00    0.0
2016/04/14 14:44:27.000  -2451404.8276   5832841.2725   -803406.3613   5  14   2.0363   6.0144   1.6416  -1.5550  -1.5496   0.8056   1.00    0.0
2016/04/14 14:44:28.000  -2451404.8622   5832842.1410   -803406.5552   5  14   2.0363   6.0143   1.6415  -1.5550  -1.5493   0.8056   1.00    0.0
2016/04/14 14:44:29.000  -2451404.5920   5832842.1606   -803406.7215   5  14   2.0363   6.0142   1.6415  -1.5550  -1.5490   0.8055   1.00    0.0
2016/04/14 14:44:30.000  -2451404.6281   5832843.0961   -803406.9890   5  14   2.0363   6.0142   1.6414  -1.5550  -1.5488   0.8054   1.00    0.0
2016/04/14 14:44:31.000  -2451404.5381   5832843.4300   -803407.1811   5  14   2.0363   6.0141   1.6413  -1.5550  -1.5485   0.8053   1.00    0.0
2016/04/14 14:44:32.000  -2451404.4341   5832843.2579   -803407.3350   5  14   2.0363   6.0140   1.6412  -1.5550  -1.5482   0.8053   1.00    0.0
2016/04/14 14:44:33.000  -2451404.2586   5832843.6179   -803407.5912   5  14   2.0364   6.0139   1.6412  -1.5550  -1.5479   0.8052   0.00    0.0
2016/04/14 14:44:34.000  -2451403.9681   5832843.1273   -803407.5856   5  14   2.0364   6.0138   1.6411  -1.5550  -1.5477   0.8051   0.00    0.0
2016/04/14 14:44:35.000  -2451403.8246   5832842.6113   -803407.7146   5  14   2.0364   6.0138   1.6410  -1.5550  -1.5474   0.8050   0.00    0.0
2016/04/14 14:44:36.000  -2451403.6302   5832843.0392   -803407.8438   5  14   2.0364   6.0137   1.6409  -1.5551  -1.5471   0.8050   0.00    0.0
2016/04/14 14:44:37.000  -2451401.7758   5832853.6767   -803407.8680   5  15   1.9518   4.9143   1.6391  -2.1052  -1.6287   0.7773   0.00    0.0
2016/04/14 14:44:38.000  -2451402.6910   5832848.2286   -803408.1670   5  15   1.9518   4.9142   1.6391  -2.1052  -1.6284   0.7772   0.00    0.0
2016/04/14 14:44:39.000  -2451403.1348   5832844.0114   -803408.3103   5  15   1.9518   4.9141   1.6390  -2.1052  -1.6282   0.7772   1.00    0.0
2016/04/14 14:44:40.000  -2451403.4346   5832841.9903   -803408.3310   5  15   1.9518   4.9140   1.6389  -2.1052  -1.6279   0.7771   0.00    0.0
2016/04/14 14:44:41.000  -2451403.9368   5832838.9130   -803408.5166   5  15   1.9518   4.9139   1.6388  -2.1052  -1.6276   0.7770   0.00    0.0
2016/04/14 14:44:42.000  -2451404.3994   5832838.3768   -803408.6013   5  15   1.9518   4.9139   1.6388  -2.1052  -1.6273   0.7770   1.00    0.0
2016/04/14 14:44:43.000  -2451404.2296   5832839.4170   -803408.5709   5  15   1.9518   4.9138   1.6387  -2.1052  -1.6270   0.7769   1.00    0.0
2016/04/14 14:44:44.000  -2451403.9108   5832841.4793   -803408.5226   5  15   1.9519   4.9137   1.6386  -2.1052  -1.6267   0.7768   0.00    0.0
2016/04/14 14:44:45.000  -2451403.3555   5832843.1566   -803408.5669   5  15   1.9519   4.9136   1.6385  -2.1052  -1.6264   0.7768   1.00    0.0
2016/04/14 14:44:46.000  -2451403.4120   5832843.2712   -803408.7022   5  15   1.9519   4.9135   1.6385  -2.1052  -1.6261   0.7767   1.00    0.0
2016/04/14 14:44:47.000  -2451403.4464   5832843.0629   -803408.8748   5  15   1.9519   4.9134   1.6384  -2.1051  -1.6258   0.7766   0.00    0.0
2016/04/14 14:44:48.000  -2451403.8542   5832840.8928   -803408.9546   5  15   1.9519   4.9133   1.6383  -2.1051  -1.6255   0.7766   1.00    0.0
2016/04/14 14:44:49.000  -2451404.1507   5832839.8161   -803409.1204   5  15   1.9519   4.9132   1.6382  -2.1051  -1.6252   0.7765   0.00    0.0
2016/04/14 14:44:50.000  -2451404.6263   5832836.5759   -803409.0476   5  15   1.9520   4.9131   1.6382  -2.1051  -1.6250   0.7764   1.00    0.0
2016/04/14 14:44:51.000  -2451405.1289   5832834.3391   -803408.8889   5  15   1.9520   4.9130   1.6381  -2.1051  -1.6247   0.7764   0.00    0.0
2016/04/14 14:44:52.000  -2451405.6561   5832830.5937   -803408.9357   5  15   1.9520   4.9129   1.6380  -2.1051  -1.6244   0.7763   1.00    0.0
2016/04/14 14:44:53.000  -2451405.4289   5832830.1918   -803408.9162   5  15   1.9520   4.9128   1.6379  -2.1051  -1.6241   0.7762   0.00    0.0
2016/04/14 14:44:54.000  -2451405.2613   5832830.3646   -803408.7670   5  15   1.9520   4.9127   1.6379  -2.1051  -1.6238   0.7762   0.00    0.0
2016/04/14 14:44:55.000  -2451404.8383   5832829.9170   -803408.5883   5  15   1.9520   4.9126   1.6378  -2.1051  -1.6235   0.7761   0.00    0.0
2016/04/14 14:44:56.000  -2451404.4501   5832831.9360   -803408.4284   5  15   1.9520   4.9126   1.6377  -2.1051  -1.6232   0.7760   1.00    0.0
2016/04/14 14:44:57.000  -2451403.9442   5832834.7027   -803408.2041   5  15   1.9521   4.9125   1.6376  -2.1051  -1.6229   0.7760   1.00    0.0
2016/04/14 14:44:58.000  -2451402.9791   5832839.1473   -803408.0322   5  15   1.9521   4.9124   1.6376  -2.1051  -1.6226   0.7759   0.00    0.0
2016/04/14 14:44:59.000  -2451402.4967   5832840.2681   -803407.7802   5  15   1.9521   4.9123   1.6375  -2.1051  -1.6223   0.7758   0.00    0.0
2016/04/14 14:45:00.000  -2451402.0606   5832842.0501   -803407.7826   5  15   1.9521   4.9122   1.6374  -2.1051  -1.6220   0.7758   0.00    0.0
2016/04/14 14:45:01.000  -2451401.5931   5832843.5254   -803407.7051   5  15   1.9521   4.9121   1.6374  -2.1051  -1.6218   0.7757   1.00    0.0
2016/04/14 14:45:02.000  -2451401.6304   5832843.6244   -803407.6932   5  15   1.9521   4.9120   1.6373  -2.1051  -1.6215   0.7756   0.00    0.0
2016/04/14 14:45:03.000  -2451401.6374   5832842.8640   -803407.7137   5  15   1.9522   4.9119   1.6372  -2.1050  -1.6212   0.7755   0.00    0.0
2016/04/14 14:45:04.000  -2451401.4921   5832841.9217   -803407.5336   5  15   1.9522   4.9118   1.6371  -2.1050  -1.6209   0.7755   0.00    0.0
2016/04/14 14:45:05.000  -2451400.9453   5832842.7990   -803407.5292   5  15   1.9522   4.9117   1.6371  -2.1050  -1.6206   0.7754   1.00    0.0
2016/04/14 14:45:06.000  -2451400.3494   5832845.3417   -803407.5243   5  15   1.9522   4.9116   1.6370  -2.1050  -1.6203   0.7753   0.00    0.0
2016/04/14 14:45:07.000  -2451399.7280   5832848.2446   -803407.3141   5  15   1.9522   4.9115   1.6369  -2.1050  -1.6200   0.7753   1.00    0.0
2016/04/14 14:45:08.000  -2451401.3722   5832837.5979   -803407.4633   5  14   2.0367   6.0109   1.6385  -1.5554  -1.5381   0.8026   0.00    0.0
2016/04/14 14:45:09.000  -2451401.3917   5832837.9155   -803407.5161   5  14   2.0367   6.0108   1.6384  -1.5554  -1.5379   0.8025   0.00    0.0
2016/04/14 14:45:10.000  -2451401.1463   5832837.6069   -803407.4797   5  14   2.0367   6.0107   1.6384  -1.5554  -1.5376   0.8024   0.00    0.0
2016/04/14 14:45:11.000  -2451401.0980   5832838.2756   -803407.3382   5  14   2.0368   6.0106   1.6383  -1.5555  -1.5373   0.8023   0.00    0.0
2016/04/14 14:45:12.000  -2451401.3063   5832837.7192   -803407.2479   5  14   2.0368   6.0105   1.6382  -1.5555  -1.5370   0.8023   0.00    0.0
2016/04/14 14:45:13.000  -2451401.2403   5832838.1350   -803407.2630   5  14   2.0368   6.0104   1.6381  -1.5555  -1.5367   0.8022   0.00    0.0
2016/04/14 14:45:14.000  -2451401.3547   5832838.7982   -803407.2554   5  14   2.0368   6.0103   1.6381  -1.5555  -1.5365   0.8021   0.00    0.0
2016/04/14 14:45:15.000  -2451401.0387   5832838.7141   -803407.2088   5  14   2.0368   6.0102   1.6380  -1.5555  -1.5362   0.8020   0.00    0.0
2016/04/14 14:45:16.000  -2451401.0679   5832838.3483   -803407.3161   5  14   2.0368   6.0101   1.6379  -1.5555  -1.5359   0.8020   0.00    0.0
2016/04/14 14:45:17.000  -2451400.9978   5832838.2799   -803407.4491   5  14   2.0368   6.0100   1.6378  -1.5555  -1.5356   0.8019   0.00    0.0
2016/04/14 14:45:18.000  -2451400.9402   5832838.1524   -803407.3622   5  14   2.0368   6.0099   1.6378  -1.5555  -1.5353   0.8018   0.00    0.0
2016/04/14 14:45:19.000  -2451401.1407   5832839.2103   -803407.4663   5  14   2.0368   6.0098   1.6377  -1.5556  -1.5351   0.8017   1.00    0.0
2016/04/14 14:45:20.000  -2451401.2499   5832839.3737   -803407.4234   5  14   2.0369   6.0097   1.6376  -1.5556  -1.5348   0.8017   0.00    0.0
2016/04/14 14:45:21.000  -2451401.0035   5832838.7505   -803407.2864   5  14   2.0369   6.0096   1.6375  -1.5556  -1.5345   0.8016   0.00    0.0
2016/04/14 14:45:22.000  -2451400.9388   5832838.9514   -803407.4219   5  14   2.0369   6.0095   1.6375  -1.5556  -1.5342   0.8015   0.00    0.0
2016/04/14 14:45:23.000  -2451400.9012   5832838.5608   -803407.3462   5  14   2.0369   6.0094   1.6374  -1.5556  -1.5339   0.8014   0.00    0.0
2016/04/14 14:45:24.000  -2451401.1697   5832839.0365   -803407.4892   5  14   2.0369   6.0093   1.6373  -1.5556  -1.5336   0.8014   0.00    0.0
2016/04/14 14:45:25.000  -2451400.9290   5832839.3841   -803407.4385   5  14   2.0369   6.0092   1.6372  -1.5556  -1.5334   0.8013   0.00    0.0
2016/04/14 14:45:26.000  -2451398.6608   5832854.2078   -803407.1811   5  15   1.9525   4.9097   1.6355  -2.1049  -1.6145   0.7740   0.00    0.0
2016/04/14 14:45:27.000  -2451399.0002   5832850.4820   -803407.4118   5  15   1.9525   4.9096   1.6354  -2.1049  -1.6142   0.7739   0.00    0.0
2016/04/14 14:45:28.000  -2451399.6265   5832846.5505   -803407.6158   5  15   1.9525   4.9095   1.6353  -2.1049  -1.6139   0.7739   0.00    0.0
2016/04/14 14:45:29.000  -2451400.3412   5832843.7774   -803407.8205   5  15   1.9526   4.9094   1.6353  -2.1049  -1.6136   0.7738   0.00    0.0
2016/04/14 14:45:30.000  -2451401.1373   5832837.4289   -803408.0400   5  15   1.9526   4.9093   1.6352  -2.1049  -1.6133   0.7737   0.00    0.0
2016/04/14 14:45:31.000  -2451401.7495   5832833.7939   -803408.4066   5  15   1.9526   4.9092   1.6351  -2.1049  -1.6130   0.7737   0.00    0.0
2016/04/14 14:45:32.000  -2451400.5460   5832842.3480   -803408.3865   5  14   2.0370   6.0085   1.6367  -1.5557  -1.5314   0.8008   0.00    0.0
2016/04/14 14:45:33.000  -2451400.5127   5832842.2307   -803408.4582   5  14   2.0370   6.0084   1.6366  -1.5557  -1.5311   0.8007   0.00    0.0
2016/04/14 14:45:34.000  -2451400.5759   5832842.1845   -803408.5321   5  14   2.0370   6.0083   1.6366  -1.5557  -1.5308   0.8006   0.00    0.0
2016/04/14 14:45:35.000  -2451400.4222   5832842.4134   -803408.6101   5  14   2.0370   6.0082   1.6365  -1.5558  -1.5305   0.8006   0.00    0.0
2016/04/14 14:45:36.000  -2451400.6005   5832842.4743   -803408.6907   5  14   2.0370   6.0081   1.6364  -1.5558  -1.5303   0.8005   0.00    0.0
2016/04/14 14:45:37.000  -2451400.6289   5832841.8751   -803408.7212   5  14   2.0370   6.0080   1.6363  -1.5558  -1.5300   0.8004   1.00    0.0
2016/04/14 14:45:38.000  -2451402.9596   5832828.2524   -803409.0059   5  15   1.9527   4.9085   1.6346  -2.1048  -1.6109   0.7732   0.00    0.0
2016/04/14 14:45:39.000  -2451402.3692   5832833.4521   -803409.0205   5  15   1.9527   4.9084   1.6345  -2.1048  -1.6106   0.7731   0.00    0.0
2016/04/14 14:45:40.000  -2451401.3481   5832838.0050   -803408.9397   5  15   1.9527   4.9083   1.6345  -2.1048  -1.6104   0.7730   0.00    0.0
2016/04/14 14:45:41.000  -2451400.5832   5832843.1400   -803408.7945   5  15   1.9528   4.9082   1.6344  -2.1048  -1.6101   0.7730   0.00    0.0
2016/04/14 14:45:42.000  -2451399.7386   5832846.7719   -803408.6260   5  15   1.9528   4.9081   1.6343  -2.1048  -1.6098   0.7729   0.00    0.0
2016/04/14 14:45:43.000  -2451399.3266   5832850.1423   -803408.5476   5  15   1.9528   4.9080   1.6342  -2.1048  -1.6095   0.7728   0.00    0.0
2016/04/14 14:45:44.000  -2451399.0902   5832849.7533   -803408.4462   5  15   1.9528   4.9079   1.6342  -2.1048  -1.6092   0.7728   0.00    0.0
2016/04/14 14:45:45.000  -2451398.9454   5832850.8559   -803408.4498   5  15   1.9528   4.9078   1.6341  -2.1048  -1.6089   0.7727   0.00    0.0
2016/04/14 14:45:46.000  -2451398.5447   5832852.8148   -803408.4217   5  15   1.9528   4.9077   1.6340  -2.1047  -1.6086   0.7726   0.00    0.0
2016/04/14 14:45:47.000  -2451398.5656   5832853.1963   -803408.3018   5  15   1.9529   4.9076   1.6339  -2.1047  -1.6083   0.7726   1.00    0.0
2016/04/14 14:45:48.000  -2451398.7901   5832852.3393   -803408.3508   5  15   1.9529   4.9075   1.6339  -2.1047  -1.6080   0.7725   1.00    0.0
2016/04/14 14:45:49.000  -2451398.8021   5832851.7047   -803408.1851   5  15   1.9529   4.9074   1.6338  -2.1047  -1.6077   0.7724   0.00    0.0
2016/04/14 14:45:50.000  -2451399.0403   5832849.4594   -803408.2513   5  15   1.9529   4.9073   1.6337  -2.1047  -1.6074   0.7724   0.00    0.0
2016/04/14 14:45:51.000  -2451398.9747   5832848.7868   -803408.2385   5  15   1.9529   4.9072   1.6336  -2.1047  -1.6071   0.7723   0.00    0.0
2016/04/14 14:45:52.000  -2451399.6011   5832842.6329   -803408.4765   5  15   1.9529   4.9071   1.6336  -2.1047  -1.6068   0.7722   0.00    0.0
2016/04/14 14:45:53.000  -2451400.3096   5832840.1088   -803408.0531   5  15   1.9530   4.9070   1.6335  -2.1047  -1.6065   0.7722   0.00    0.0
2016/04/14 14:45:54.000  -2451400.0827   5832838.7170   -803408.3552   5  15   1.9530   4.9069   1.6334  -2.1047  -1.6062   0.7721   1.00    0.0
